Name,Address Line 1,Address Line 2,City,State,Postcode,Country,SingleLineAddress,Phone,Email,URL,Visible,Lat,Lng,Filters,Monday,Tuesday,Wednesday,Thursday,Friday,Saturday,Sunday,Products,Classes
The Trak Shak,2364 Garland Dr.,,Birmingham,Alabama,35216,US,"2364 Garland Dr.,Birmingham,Alabama,35216",205-870-5644,,http://trakshak.com,1,33.429009,-86.776548,"Open 24 Hours, Mobile Payment, Premium Location",10:00 - 19:00,10:00 - 19:00,10:00 - 19:00,10:00 - 19:00,15:30 - 21:00,Closed,Closed,"Shoes, Socks, Clothes",Yes
Fleet Feet Sports Huntsville,2722 Carl T. Jones DR. Suite B2,,Huntsville,Alabama,35802,US,"2722 Carl T. Jones DR. Suite B2,Huntsville,Alabama,35802",256-650-7063,,http://www.fleetfeethuntsville.com,1,34.67602,-86.548072,Running Specialty,10:00 - 19:00,10:00 - 19:00,10:00 - 19:00,10:00 - 19:00,15:30 - 21:00,15:30 - 21:00,Closed,"Shoes, Socks, Clothes, Bikes",Yes
Love 2 Run,560-3 Westgate Pkwy,,Dothan,Alabama,36303,US,"560-3 Westgate Pkwy,Dothan,Alabama,36303",334-699-5007,,https://www.facebook.com/Love-2-Run-270720856305305/,1,31.23825,-85.43445,"Open 24 Hours, Mobile Payment, Premium Location",,,,,,,,"Shoes, Socks, Clothes, Insoles, Supplements",Yes
Sports N More,8388 Highway 59 South Suite 2,,Foley,Alabama,36535,US,"8388 Highway 59 South Suite 2,Foley,Alabama,36535",,,,1,30.448736,-87.683385,"Running Specialty, Vitamin",,,,,,,,"Shoes, Socks, Clothes, Insoles",Yes
Sole Sports Running,1006 E Warner Rd,Ste 104,Tempe,Arizona,85284,US,"1006 E Warner Rd,Tempe,Arizona,85284",(480) 522-2475,support (at) solesportsrunning.com,http://www.solesportsrunning.com/,1,33.335412,-111.927318,"Open 24 Hours, Mobile Payment, Premium Location",,,,,,,,"Shoes, Socks, Clothes, Supplements",No
Sole Sports Running Zone,7001 N Scottsdale Rd #170,,Scottsdale,Arizona,85253,US,"7001 N Scottsdale Rd #170,Scottsdale,Arizona,85253",(480) 991-2475,,http://www.solesportsrunning.com,1,33.539293,-111.923805,"Running Specialty, Vitamin",,,,,,,,"Shoes, Socks, Clothes, Fitness Trackers",No
Sole Sports Running Zone,18583 N 59th Ave #112,,Glendale,Arizona,85308,US,"18583 N 59th Ave #112,Glendale,Arizona,85308",623-322-2495,,http://www.solesportsrunning.com,1,33.653424,-112.184836,Test,,,,,,,,"Shoes, Socks, Clothes, Insoles, Fitness Trackers",No
Go! Running,1819 N Grant St,,Little Rock,Arkansas,72207,US,"1819 N Grant St,Little Rock,Arkansas,72207",501-663-6800,,http://gorunning.com,1,34.768883,-92.339022,"Open 24 Hours, Mobile Payment, Premium Location",,,,,,,,"Shoes, Socks",No